+QGNSSRD: $GNRMC,065045.000,A,1257.78929,N,08015.16859,E,1.71,308.73,231222,,,A,V*01
+QGNSSRD: $GNRMC,065046.000,A,1257.78912,N,08015.16863,E,0.00,308.73,231222,,,A,V*04
+QGNSSRD: $GNRMC,065047.000,A,1257.78896,N,08015.16865,E,0.00,308.73,231222,,,A,V*0E
+QGNSSRD: $GNRMC,065048.000,A,1257.78883,N,08015.16871,E,0.00,308.73,231222,,,A,V*00
+QGNSSRD: $GNRMC,065049.000,A,1257.78873,N,08015.16877,E,0.00,308.73,231222,,,A,V*08
+QGNSSRD: $GNRMC,065050.000,A,1257.78862,N,08015.16877,E,0.00,308.73,231222,,,A,V*00
+QGNSSRD: $GNRMC,065051.000,A,1257.78853,N,08015.16875,E,0.00,308.73,231222,,,A,V*01
+QGNSSRD: $GNRMC,065052.000,A,1257.78848,N,08015.16870,E,0.00,308.73,231222,,,A,V*0D
+QGNSSRD: $GNRMC,065053.000,A,1257.78844,N,08015.16866,E,0.00,308.73,231222,,,A,V*07
+QGNSSRD: $GNRMC,065055.000,A,1257.78840,N,08015.16858,E,0.00,308.73,231222,,,A,V*08
+QGNSSRD: $GNRMC,065056.000,A,1257.78815,N,08015.16858,E,0.98,308.73,231222,,,A,V*0A
+QGNSSRD: $GNRMC,065057.000,A,1257.78777,N,08015.16854,E,1.27,308.73,231222,,,A,V*09
+QGNSSRD: $GNRMC,065058.000,A,1257.78748,N,08015.16854,E,0.75,308.73,231222,,,A,V*0C
+QGNSSRD: $GNRMC,065059.000,A,1257.78734,N,08015.16857,E,0.60,308.73,231222,,,A,V*01
+QGNSSRD: $GNRMC,065100.000,A,1257.78726,N,08015.16859,E,0.73,308.73,231222,,,A,V*03
+QGNSSRD: $GNRMC,065101.000,A,1257.78707,N,08015.16872,E,1.45,308.73,231222,,,A,V*0C
+QGNSSRD: $GNRMC,065102.000,A,1257.78688,N,08015.16887,E,0.90,308.73,231222,,,A,V*0A
+QGNSSRD: $GNRMC,065103.000,A,1257.78694,N,08015.16885,E,0.00,308.73,231222,,,A,V*0D
+QGNSSRD: $GNRMC,065104.000,A,1257.78701,N,08015.16881,E,0.00,308.73,231222,,,A,V*03
+QGNSSRD: $GNRMC,065105.000,A,1257.78708,N,08015.16877,E,0.00,308.73,231222,,,A,V*02
+QGNSSRD: $GNRMC,065106.000,A,1257.78714,N,08015.16873,E,0.00,308.73,231222,,,A,V*08
+QGNSSRD: $GNRMC,065107.000,A,1257.78722,N,08015.16869,E,0.00,308.73,231222,,,A,V*07
+QGNSSRD: $GNRMC,065108.000,A,1257.78730,N,08015.16864,E,0.00,308.73,231222,,,A,V*06
+QGNSSRD: $GNRMC,065110.000,A,1257.78749,N,08015.16855,E,0.00,308.73,231222,,,A,V*03
+QGNSSRD: $GNRMC,065111.000,A,1257.78759,N,08015.16852,E,0.00,308.73,231222,,,A,V*04
+QGNSSRD: $GNRMC,065112.000,A,1257.78763,N,08015.16850,E,0.00,308.73,231222,,,A,V*0C
+QGNSSRD: $GNRMC,065113.000,A,1257.78767,N,08015.16847,E,0.00,308.73,231222,,,A,V*0F
+QGNSSRD: $GNRMC,065113.000,A,1257.78767,N,08015.16847,E,0.00,308.73,231222,,,A,V*0F
+QGNSSRD: $GNGGA,065113.000,1257.78767,N,08015.16847,E,1,12,1.2,3.9,M,-92.9,M,,*6F
+QGNSSRD: $GNRMC,065127.000,A,1257.78695,N,08015.16776,E,0.20,197.84,231222,,,A,V*07
+QGNSSRD: $GNRMC,065140.000,A,1257.78758,N,08015.16820,E,0.74,197.84,231222,,,A,V*0B
+QGNSSRD: $GNRMC,065142.000,A,1257.78750,N,08015.16823,E,0.31,197.84,231222,,,A,V*03
+QGNSSRD: $GNRMC,065143.000,A,1257.78758,N,08015.16804,E,1.57,197.84,231222,,,A,V*0E
+QGNSSRD: $GNRMC,065144.000,A,1257.78755,N,08015.16805,E,0.00,197.84,231222,,,A,V*06
+QGNSSRD: $GNRMC,065145.000,A,1257.78757,N,08015.16806,E,0.00,197.84,231222,,,A,V*06
+QGNSSRD: $GNRMC,065146.000,A,1257.78757,N,08015.16804,E,0.00,197.84,231222,,,A,V*07
+QGNSSRD: $GNRMC,065147.000,A,1257.78759,N,08015.16806,E,0.00,197.84,231222,,,A,V*0A
+QGNSSRD: $GNRMC,065148.000,A,1257.78763,N,08015.16805,E,0.00,197.84,231222,,,A,V*0F
+QGNSSRD: $GNRMC,065149.000,A,1257.78768,N,08015.16803,E,0.00,197.84,231222,,,A,V*03
+QGNSSRD: $GNRMC,065150.000,A,1257.78772,N,08015.16801,E,0.00,197.84,231222,,,A,V*02
+QGNSSRD: $GNRMC,065151.000,A,1257.78775,N,08015.16798,E,0.00,197.84,231222,,,A,V*0B
+QGNSSRD: $GNRMC,065152.000,A,1257.78777,N,08015.16798,E,0.00,197.84,231222,,,A,V*0A
+QGNSSRD: $GNRMC,065153.000,A,1257.78778,N,08015.16798,E,0.00,197.84,231222,,,A,V*04
+QGNSSRD: $GNRMC,065154.000,A,1257.78779,N,08015.16798,E,0.00,197.84,231222,,,A,V*02
+QGNSSRD: $GNRMC,065155.000,A,1257.78779,N,08015.16798,E,0.00,197.84,231222,,,A,V*03
+QGNSSRD: $GNRMC,065157.000,A,1257.78773,N,08015.16797,E,0.00,197.84,231222,,,A,V*04
+QGNSSRD: $GNRMC,065158.000,A,1257.78772,N,08015.16797,E,0.00,197.84,231222,,,A,V*0A
+QGNSSRD: $GNRMC,065159.000,A,1257.78771,N,08015.16797,E,0.00,197.84,231222,,,A,V*08
+QGNSSRD: $GNRMC,065159.000,A,1257.78771,N,08015.16797,E,0.00,197.84,231222,,,A,V*08
+QGNSSRD: $GNGGA,065159.000,1257.78771,N,08015.16797,E,1,12,1.2,19.7,M,-92.9,M,,*51
+QGNSSRD: $GNRMC,065213.000,A,1257.78756,N,08015.16713,E,1.06,197.84,231222,,,A,V*0B
+QGNSSRD: $GNRMC,065214.000,A,1257.78801,N,08015.16702,E,1.45,197.84,231222,,,A,V*06
+QGNSSRD: $GNRMC,065215.000,A,1257.78857,N,08015.16699,E,1.83,197.84,231222,,,A,V*0D
+QGNSSRD: $GNRMC,065216.000,A,1257.78893,N,08015.16699,E,0.66,197.84,231222,,,A,V*0C
+QGNSSRD: $GNRMC,065217.000,A,1257.78899,N,08015.16701,E,0.00,197.84,231222,,,A,V*07
+QGNSSRD: $GNRMC,065218.000,A,1257.78900,N,08015.16704,E,0.00,197.84,231222,,,A,V*0C
+QGNSSRD: $GNRMC,065219.000,A,1257.78903,N,08015.16705,E,0.00,197.84,231222,,,A,V*0F
+QGNSSRD: $GNRMC,065220.000,A,1257.78906,N,08015.16705,E,0.00,197.84,231222,,,A,V*00
+QGNSSRD: $GNRMC,065221.000,A,1257.78910,N,08015.16705,E,0.00,197.84,231222,,,A,V*06
+QGNSSRD: $GNRMC,065222.000,A,1257.78915,N,08015.16705,E,0.00,197.84,231222,,,A,V*00
+QGNSSRD: $GNRMC,065223.000,A,1257.78918,N,08015.16704,E,0.00,197.84,231222,,,A,V*0D
+QGNSSRD: $GNRMC,065224.000,A,1257.78923,N,08015.16705,E,0.00,197.84,231222,,,A,V*03
+QGNSSRD: $GNRMC,065225.000,A,1257.78927,N,08015.16705,E,0.00,197.84,231222,,,A,V*06
+QGNSSRD: $GNRMC,065226.000,A,1257.78931,N,08015.16704,E,0.00,197.84,231222,,,A,V*03
+QGNSSRD: $GNRMC,065228.000,A,1257.78939,N,08015.16702,E,0.00,197.84,231222,,,A,V*03
+QGNSSRD: $GNRMC,065229.000,A,1257.78942,N,08015.16701,E,0.00,197.84,231222,,,A,V*0D
+QGNSSRD: $GNRMC,065230.000,A,1257.78945,N,08015.16701,E,0.00,197.84,231222,,,A,V*02
+QGNSSRD: $GNRMC,065231.000,A,1257.78945,N,08015.16701,E,0.00,197.84,231222,,,A,V*03
+QGNSSRD: $GNRMC,065232.000,A,1257.78945,N,08015.16701,E,0.00,197.84,231222,,,A,V*00
+QGNSSRD: $GNRMC,065233.000,A,1257.78946,N,08015.16701,E,0.00,197.84,231222,,,A,V*02
+QGNSSRD: $GNRMC,065234.000,A,1257.78946,N,08015.16701,E,0.00,197.84,231222,,,A,V*05
+QGNSSRD: $GNRMC,065235.000,A,1257.78921,N,08015.16695,E,1.08,197.84,231222,,,A,V*00
+QGNSSRD: $GNRMC,065236.000,A,1257.78899,N,08015.16686,E,0.76,197.84,231222,,,A,V*0B
+QGNSSRD: $GNRMC,065237.000,A,1257.78872,N,08015.16675,E,1.22,197.84,231222,,,A,V*03
+QGNSSRD: $GNRMC,065238.000,A,1257.78839,N,08015.16671,E,1.17,197.84,231222,,,A,V*01
+QGNSSRD: $GNRMC,065239.000,A,1257.78810,N,08015.16668,E,0.95,197.84,231222,,,A,V*08
+QGNSSRD: $GNRMC,065240.000,A,1257.78803,N,08015.16665,E,0.16,197.84,231222,,,A,V*02
+QGNSSRD: $GNRMC,065241.000,A,1257.78799,N,08015.16666,E,0.36,197.84,231222,,,A,V*0E
+QGNSSRD: $GNRMC,065243.000,A,1257.78797,N,08015.16665,E,0.00,197.84,231222,,,A,V*04
+QGNSSRD: $GNRMC,065244.000,A,1257.78796,N,08015.16664,E,0.00,197.84,231222,,,A,V*03
+QGNSSRD: $GNRMC,065245.000,A,1257.78795,N,08015.16662,E,0.00,197.84,231222,,,A,V*07
+QGNSSRD: $GNRMC,065245.000,A,1257.78795,N,08015.16662,E,0.00,197.84,231222,,,A,V*07
+QGNSSRD: $GNGGA,065245.000,1257.78795,N,08015.16662,E,1,11,1.3,30.0,M,-92.9,M,,*50
+QGNSSRD: $GNRMC,065259.000,A,1257.78789,N,08015.16664,E,1.87,197.84,231222,,,A,V*0F
+QGNSSRD: $GNRMC,065300.000,A,1257.78853,N,08015.16657,E,2.64,356.76,231222,,,A,V*06
+QGNSSRD: $GNRMC,065301.000,A,1257.78916,N,08015.16652,E,1.89,356.76,231222,,,A,V*02
+QGNSSRD: $GNRMC,065302.000,A,1257.78937,N,08015.16660,E,0.66,356.76,231222,,,A,V*03
+QGNSSRD: $GNRMC,065303.000,A,1257.78929,N,08015.16667,E,0.49,356.76,231222,,,A,V*07
+QGNSSRD: $GNRMC,065304.000,A,1257.78908,N,08015.16664,E,1.52,356.76,231222,,,A,V*0B
+QGNSSRD: $GNRMC,065305.000,A,1257.78903,N,08015.16656,E,0.25,356.76,231222,,,A,V*01
+QGNSSRD: $GNRMC,065306.000,A,1257.78913,N,08015.16653,E,0.00,356.76,231222,,,A,V*01
+QGNSSRD: $GNRMC,065307.000,A,1257.78921,N,08015.16651,E,0.00,356.76,231222,,,A,V*03
+QGNSSRD: $GNRMC,065308.000,A,1257.78929,N,08015.16649,E,0.00,356.76,231222,,,A,V*0D
+QGNSSRD: $GNRMC,065309.000,A,1257.78935,N,08015.16649,E,0.00,356.76,231222,,,A,V*01
+QGNSSRD: $GNRMC,065310.000,A,1257.78940,N,08015.16649,E,0.00,356.76,231222,,,A,V*0B
+QGNSSRD: $GNRMC,065311.000,A,1257.78943,N,08015.16650,E,0.00,356.76,231222,,,A,V*01
+QGNSSRD: $GNRMC,065312.000,A,1257.78945,N,08015.16652,E,0.00,356.76,231222,,,A,V*06
+QGNSSRD: $GNRMC,065314.000,A,1257.78949,N,08015.16655,E,0.00,356.76,231222,,,A,V*0B
+QGNSSRD: $GNRMC,065315.000,A,1257.78950,N,08015.16656,E,0.00,356.76,231222,,,A,V*01
+QGNSSRD: $GNRMC,065316.000,A,1257.78909,N,08015.16661,E,1.50,356.76,231222,,,A,V*0E
+QGNSSRD: $GNRMC,065317.000,A,1257.78907,N,08015.16662,E,0.00,356.76,231222,,,A,V*06
+QGNSSRD: $GNRMC,065318.000,A,1257.78907,N,08015.16662,E,0.00,356.76,231222,,,A,V*09
+QGNSSRD: $GNRMC,065319.000,A,1257.78905,N,08015.16663,E,0.00,356.76,231222,,,A,V*0B
+QGNSSRD: $GNRMC,065320.000,A,1257.78904,N,08015.16666,E,0.00,356.76,231222,,,A,V*05
+QGNSSRD: $GNRMC,065321.000,A,1257.78903,N,08015.16666,E,0.00,356.76,231222,,,A,V*03
+QGNSSRD: $GNRMC,065322.000,A,1257.78902,N,08015.16668,E,0.00,356.76,231222,,,A,V*0F
+QGNSSRD: $GNRMC,065323.000,A,1257.78902,N,08015.16669,E,0.00,356.76,231222,,,A,V*0F
+QGNSSRD: $GNRMC,065324.000,A,1257.78902,N,08015.16671,E,0.00,356.76,231222,,,A,V*01
+QGNSSRD: $GNRMC,065325.000,A,1257.78904,N,08015.16673,E,0.00,356.76,231222,,,A,V*04
+QGNSSRD: $GNRMC,065326.000,A,1257.78903,N,08015.16675,E,0.00,356.76,231222,,,A,V*06
+QGNSSRD: $GNRMC,065327.000,A,1257.78902,N,08015.16676,E,0.00,356.76,231222,,,A,V*05
+QGNSSRD: $GNRMC,065328.000,A,1257.78901,N,08015.16677,E,0.00,356.76,231222,,,A,V*08
+QGNSSRD: $GNRMC,065330.000,A,1257.78896,N,08015.16679,E,0.00,356.76,231222,,,A,V*00
+QGNSSRD: $GNRMC,065331.000,A,1257.78891,N,08015.16676,E,0.00,356.76,231222,,,A,V*09
+QGNSSRD: $GNRMC,065331.000,A,1257.78891,N,08015.16676,E,0.00,356.76,231222,,,A,V*09
+QGNSSRD: $GNGGA,065331.000,1257.78891,N,08015.16676,E,1,11,1.3,33.1,M,-92.9,M,,*5E

+QGNSSRD: $GNRMC,065344.000,A,1257.78686,N,08015.16647,E,2.45,165.74,231222,,,A,V*02
+QGNSSRD: $GNRMC,065346.000,A,1257.78636,N,08015.16703,E,0.57,165.74,231222,,,A,V*0B
+QGNSSRD: $GNRMC,065347.000,A,1257.78632,N,08015.16703,E,0.00,165.74,231222,,,A,V*0C
+QGNSSRD: $GNRMC,065348.000,A,1257.78629,N,08015.16703,E,0.00,165.74,231222,,,A,V*09
+QGNSSRD: $GNRMC,065349.000,A,1257.78627,N,08015.16703,E,0.00,165.74,231222,,,A,V*06
+QGNSSRD: $GNRMC,065350.000,A,1257.78657,N,08015.16683,E,1.44,165.74,231222,,,A,V*01
+QGNSSRD: $GNRMC,065351.000,A,1257.78653,N,08015.16684,E,0.00,165.74,231222,,,A,V*02
+QGNSSRD: $GNRMC,065352.000,A,1257.78651,N,08015.16685,E,0.00,165.74,231222,,,A,V*02
+QGNSSRD: $GNRMC,065353.000,A,1257.78650,N,08015.16686,E,0.00,165.74,231222,,,A,V*01
+QGNSSRD: $GNRMC,065354.000,A,1257.78649,N,08015.16684,E,0.00,165.74,231222,,,A,V*0C
+QGNSSRD: $GNRMC,065355.000,A,1257.78650,N,08015.16684,E,0.00,165.74,231222,,,A,V*05
+QGNSSRD: $GNRMC,065356.000,A,1257.78688,N,08015.16673,E,1.56,165.74,231222,,,A,V*09
+QGNSSRD: $GNRMC,065357.000,A,1257.78733,N,08015.16664,E,1.70,165.74,231222,,,A,V*0B
+QGNSSRD: $GNRMC,065358.000,A,1257.78770,N,08015.16655,E,1.05,165.74,231222,,,A,V*03
+QGNSSRD: $GNRMC,065359.000,A,1257.78770,N,08015.16655,E,0.00,165.74,231222,,,A,V*06
+QGNSSRD: $GNRMC,065401.000,A,1257.78772,N,08015.16656,E,0.00,165.74,231222,,,A,V*0D
+QGNSSRD: $GNRMC,065402.000,A,1257.78774,N,08015.16658,E,0.00,165.74,231222,,,A,V*06
+QGNSSRD: $GNRMC,065403.000,A,1257.78774,N,08015.16659,E,0.00,165.74,231222,,,A,V*06
+QGNSSRD: $GNRMC,065404.000,A,1257.78774,N,08015.16658,E,0.00,165.74,231222,,,A,V*00
+QGNSSRD: $GNRMC,065405.000,A,1257.78772,N,08015.16658,E,0.00,165.74,231222,,,A,V*07
+QGNSSRD: $GNRMC,065406.000,A,1257.78771,N,08015.16657,E,0.00,165.74,231222,,,A,V*08
+QGNSSRD: $GNRMC,065407.000,A,1257.78770,N,08015.16656,E,0.00,165.74,231222,,,A,V*09
+QGNSSRD: $GNRMC,065408.000,A,1257.78770,N,08015.16656,E,0.00,165.74,231222,,,A,V*06
+QGNSSRD: $GNRMC,065409.000,A,1257.78767,N,08015.16656,E,0.00,165.74,231222,,,A,V*01
+QGNSSRD: $GNRMC,065410.000,A,1257.78766,N,08015.16657,E,0.00,165.74,231222,,,A,V*09
+QGNSSRD: $GNRMC,065411.000,A,1257.78737,N,08015.16648,E,1.15,165.74,231222,,,A,V*07
+QGNSSRD: $GNRMC,065412.000,A,1257.78737,N,08015.16649,E,0.00,165.74,231222,,,A,V*00
+QGNSSRD: $GNRMC,065413.000,A,1257.78735,N,08015.16649,E,0.00,165.74,231222,,,A,V*03
+QGNSSRD: $GNRMC,065414.000,A,1257.78734,N,08015.16650,E,0.00,165.74,231222,,,A,V*0D
+QGNSSRD: $GNRMC,065415.000,A,1257.78733,N,08015.16651,E,0.00,165.74,231222,,,A,V*0A
+QGNSSRD: $GNRMC,065417.000,A,1257.78734,N,08015.16651,E,0.00,165.74,231222,,,A,V*0F
+QGNSSRD: $GNRMC,065417.000,A,1257.78734,N,08015.16651,E,0.00,165.74,231222,,,A,V*0F
+QGNSSRD: $GNGGA,065417.000,1257.78734,N,08015.16651,E,1,12,1.2,30.1,M,-92.9,M,,*59

+QGNSSRD: $GNRMC,065430.000,A,1257.78773,N,08015.16621,E,0.50,165.74,231222,,,A,V*0B

+QGNSSRD: $GNRMC,065444.000,A,1257.78736,N,08015.16680,E,0.00,165.74,231222,,,A,V*07
+QGNSSRD: $GNRMC,065445.000,A,1257.78735,N,08015.16680,E,0.00,165.74,231222,,,A,V*05
+QGNSSRD: $GNRMC,065446.000,A,1257.78734,N,08015.16680,E,0.00,165.74,231222,,,A,V*07
+QGNSSRD: $GNRMC,065448.000,A,1257.78732,N,08015.16680,E,0.00,165.74,231222,,,A,V*0F
+QGNSSRD: $GNRMC,065449.000,A,1257.78730,N,08015.16680,E,0.00,165.74,231222,,,A,V*0C
+QGNSSRD: $GNRMC,065450.000,A,1257.78728,N,08015.16680,E,0.00,165.74,231222,,,A,V*0D
+QGNSSRD: $GNRMC,065451.000,A,1257.78727,N,08015.16681,E,0.00,165.74,231222,,,A,V*02
+QGNSSRD: $GNRMC,065452.000,A,1257.78726,N,08015.16681,E,0.00,165.74,231222,,,A,V*00
+QGNSSRD: $GNRMC,065453.000,A,1257.78725,N,08015.16681,E,0.00,165.74,231222,,,A,V*02
+QGNSSRD: $GNRMC,065454.000,A,1257.78724,N,08015.16682,E,0.00,165.74,231222,,,A,V*07
+QGNSSRD: $GNRMC,065455.000,A,1257.78723,N,08015.16683,E,0.00,165.74,231222,,,A,V*00
+QGNSSRD: $GNRMC,065456.000,A,1257.78722,N,08015.16686,E,0.00,165.74,231222,,,A,V*07
+QGNSSRD: $GNRMC,065457.000,A,1257.78723,N,08015.16687,E,0.00,165.74,231222,,,A,V*06
+QGNSSRD: $GNRMC,065458.000,A,1257.78722,N,08015.16690,E,0.00,165.74,231222,,,A,V*0E
+QGNSSRD: $GNRMC,065459.000,A,1257.78722,N,08015.16692,E,0.00,165.74,231222,,,A,V*0D
+QGNSSRD: $GNRMC,065500.000,A,1257.78721,N,08015.16694,E,0.00,165.74,231222,,,A,V*05
+QGNSSRD: $GNRMC,065501.000,A,1257.78721,N,08015.16695,E,0.00,165.74,231222,,,A,V*05
+QGNSSRD: $GNRMC,065502.000,A,1257.78722,N,08015.16697,E,0.00,165.74,231222,,,A,V*07
+QGNSSRD: $GNRMC,065503.000,A,1257.78722,N,08015.16698,E,0.00,165.74,231222,,,A,V*09
+QGNSSRD: $GNGGA,065503.000,1257.78722,N,08015.16698,E,1,12,1.2,28.5,M,-92.9,M,,*52

+QGNSSRD: $GNRMC,065516.000,A,1257.78802,N,08015.16683,E,2.00,343.48,231222,,,A,V*01
+QGNSSRD: $GNRMC,065517.000,A,1257.78818,N,08015.16672,E,0.52,343.48,231222,,,A,V*00
+QGNSSRD: $GNRMC,065518.000,A,1257.78781,N,08015.16661,E,2.00,187.68,231222,,,A,V*0F
+QGNSSRD: $GNRMC,065520.000,A,1257.78722,N,08015.16649,E,0.00,195.01,231222,,,A,V*09
+QGNSSRD: $GNRMC,065521.000,A,1257.78720,N,08015.16652,E,0.00,195.01,231222,,,A,V*00
+QGNSSRD: $GNRMC,065522.000,A,1257.78718,N,08015.16654,E,0.00,195.01,231222,,,A,V*0E
+QGNSSRD: $GNRMC,065523.000,A,1257.78716,N,08015.16656,E,0.00,195.01,231222,,,A,V*03
+QGNSSRD: $GNRMC,065524.000,A,1257.78715,N,08015.16658,E,0.00,195.01,231222,,,A,V*09
+QGNSSRD: $GNRMC,065525.000,A,1257.78713,N,08015.16661,E,0.00,195.01,231222,,,A,V*04
+QGNSSRD: $GNRMC,065526.000,A,1257.78711,N,08015.16662,E,0.00,195.01,231222,,,A,V*06
+QGNSSRD: $GNRMC,065527.000,A,1257.78711,N,08015.16665,E,0.00,195.01,231222,,,A,V*00
+QGNSSRD: $GNRMC,065528.000,A,1257.78712,N,08015.16666,E,0.00,195.01,231222,,,A,V*0F
+QGNSSRD: $GNRMC,065529.000,A,1257.78711,N,08015.16668,E,0.00,195.01,231222,,,A,V*03
+QGNSSRD: $GNRMC,065530.000,A,1257.78711,N,08015.16669,E,0.00,195.01,231222,,,A,V*0A
+QGNSSRD: $GNRMC,065531.000,A,1257.78712,N,08015.16670,E,0.00,195.01,231222,,,A,V*00
+QGNSSRD: $GNRMC,065532.000,A,1257.78713,N,08015.16670,E,0.00,195.01,231222,,,A,V*02
+QGNSSRD: $GNRMC,065533.000,A,1257.78711,N,08015.16670,E,0.00,195.01,231222,,,A,V*01
+QGNSSRD: $GNRMC,065535.000,A,1257.78712,N,08015.16670,E,0.00,195.01,231222,,,A,V*04
+QGNSSRD: $GNRMC,065536.000,A,1257.78712,N,08015.16671,E,0.00,195.01,231222,,,A,V*06
+QGNSSRD: $GNRMC,065537.000,A,1257.78712,N,08015.16672,E,0.00,195.01,231222,,,A,V*04
+QGNSSRD: $GNRMC,065538.000,A,1257.78712,N,08015.16673,E,0.00,195.01,231222,,,A,V*0A
+QGNSSRD: $GNRMC,065539.000,A,1257.78711,N,08015.16674,E,0.00,195.01,231222,,,A,V*0F
+QGNSSRD: $GNRMC,065540.000,A,1257.78711,N,08015.16675,E,0.00,195.01,231222,,,A,V*00
+QGNSSRD: $GNRMC,065541.000,A,1257.78710,N,08015.16676,E,0.00,195.01,231222,,,A,V*03
+QGNSSRD: $GNRMC,065542.000,A,1257.78709,N,08015.16677,E,0.00,195.01,231222,,,A,V*09
+QGNSSRD: $GNRMC,065543.000,A,1257.78709,N,08015.16679,E,0.00,195.01,231222,,,A,V*06
+QGNSSRD: $GNRMC,065544.000,A,1257.78709,N,08015.16680,E,0.00,195.01,231222,,,A,V*07
+QGNSSRD: $GNRMC,065545.000,A,1257.78708,N,08015.16681,E,0.00,195.01,231222,,,A,V*06
+QGNSSRD: $GNRMC,065546.000,A,1257.78708,N,08015.16682,E,0.00,195.01,231222,,,A,V*06
+QGNSSRD: $GNRMC,065547.000,A,1257.78708,N,08015.16683,E,0.00,195.01,231222,,,A,V*06
+QGNSSRD: $GNRMC,065548.000,A,1257.78708,N,08015.16683,E,0.00,195.01,231222,,,A,V*09
+QGNSSRD: $GNRMC,065548.000,A,1257.78708,N,08015.16683,E,0.00,195.01,231222,,,A,V*09
+QGNSSRD: $GNGGA,065549.000,1257.78707,N,08015.16684,E,1,12,1.2,31.6,M,-92.9,M,,*5D

+QGNSSRD: $GNRMC,065602.000,A,1257.78653,N,08015.16653,E,0.57,195.01,231222,,,A,V*04
+QGNSSRD: $GNRMC,065603.000,A,1257.78627,N,08015.16637,E,1.19,195.01,231222,,,A,V*0F
+QGNSSRD: $GNRMC,065604.000,A,1257.78571,N,08015.16619,E,2.43,192.60,231222,,,A,V*08
+QGNSSRD: $GNRMC,065605.000,A,1257.78506,N,08015.16613,E,2.43,187.10,231222,,,A,V*00
+QGNSSRD: $GNRMC,065607.000,A,1257.78508,N,08015.16617,E,0.00,187.10,231222,,,A,V*0D
+QGNSSRD: $GNRMC,065608.000,A,1257.78509,N,08015.16620,E,0.00,187.10,231222,,,A,V*07
+QGNSSRD: $GNRMC,065609.000,A,1257.78506,N,08015.16623,E,0.00,187.10,231222,,,A,V*0A
+QGNSSRD: $GNRMC,065610.000,A,1257.78505,N,08015.16626,E,0.00,187.10,231222,,,A,V*04
+QGNSSRD: $GNRMC,065611.000,A,1257.78545,N,08015.16630,E,1.44,187.10,231222,,,A,V*07
+QGNSSRD: $GNRMC,065612.000,A,1257.78591,N,08015.16637,E,1.62,187.10,231222,,,A,V*0E
+QGNSSRD: $GNRMC,065613.000,A,1257.78630,N,08015.16643,E,1.22,187.10,231222,,,A,V*00
+QGNSSRD: $GNRMC,065614.000,A,1257.78656,N,08015.16643,E,1.11,187.10,231222,,,A,V*07
+QGNSSRD: $GNRMC,065615.000,A,1257.78650,N,08015.16647,E,0.00,187.10,231222,,,A,V*05
+QGNSSRD: $GNRMC,065616.000,A,1257.78648,N,08015.16649,E,0.00,187.10,231222,,,A,V*01
+QGNSSRD: $GNRMC,065617.000,A,1257.78646,N,08015.16652,E,0.00,187.10,231222,,,A,V*04
+QGNSSRD: $GNRMC,065618.000,A,1257.78648,N,08015.16653,E,0.00,187.10,231222,,,A,V*04
+QGNSSRD: $GNRMC,065619.000,A,1257.78648,N,08015.16654,E,0.00,187.10,231222,,,A,V*02
+QGNSSRD: $GNRMC,065620.000,A,1257.78650,N,08015.16655,E,0.00,187.10,231222,,,A,V*00
+QGNSSRD: $GNRMC,065622.000,A,1257.78658,N,08015.16657,E,0.00,187.10,231222,,,A,V*08
+QGNSSRD: $GNRMC,065623.000,A,1257.78663,N,08015.16665,E,0.00,187.10,231222,,,A,V*00
+QGNSSRD: $GNRMC,065624.000,A,1257.78638,N,08015.16651,E,1.47,187.10,231222,,,A,V*0C
+QGNSSRD: $GNRMC,065625.000,A,1257.78640,N,08015.16656,E,0.00,187.10,231222,,,A,V*07
+QGNSSRD: $GNRMC,065626.000,A,1257.78643,N,08015.16659,E,0.00,187.10,231222,,,A,V*08
+QGNSSRD: $GNRMC,065627.000,A,1257.78646,N,08015.16661,E,0.00,187.10,231222,,,A,V*07
+QGNSSRD: $GNRMC,065628.000,A,1257.78650,N,08015.16664,E,0.00,187.10,231222,,,A,V*0A
+QGNSSRD: $GNRMC,065629.000,A,1257.78652,N,08015.16667,E,0.00,187.10,231222,,,A,V*0A
+QGNSSRD: $GNRMC,065630.000,A,1257.78655,N,08015.16671,E,0.00,187.10,231222,,,A,V*02
+QGNSSRD: $GNRMC,065631.000,A,1257.78657,N,08015.16673,E,0.00,187.10,231222,,,A,V*03
+QGNSSRD: $GNRMC,065632.000,A,1257.78661,N,08015.16676,E,0.00,187.10,231222,,,A,V*00
+QGNSSRD: $GNRMC,065633.000,A,1257.78665,N,08015.16678,E,0.00,187.10,231222,,,A,V*0B
+QGNSSRD: $GNRMC,065634.000,A,1257.78667,N,08015.16680,E,0.00,187.10,231222,,,A,V*09
+QGNSSRD: $GNRMC,065634.000,A,1257.78667,N,08015.16680,E,0.00,187.10,231222,,,A,V*09
+QGNSSRD: $GNGGA,065634.000,1257.78667,N,08015.16680,E,1,12,1.2,31.3,M,-92.9,M,,*52

+QGNSSRD: $GNRMC,065648.000,A,1257.78688,N,08015.16709,E,0.85,187.10,231222,,,A,V*0E
+QGNSSRD: $GNRMC,065649.000,A,1257.78678,N,08015.16732,E,1.26,187.10,231222,,,A,V*00
+QGNSSRD: $GNRMC,065650.000,A,1257.78657,N,08015.16758,E,1.23,187.10,231222,,,A,V*0C
+QGNSSRD: $GNRMC,065651.000,A,1257.78622,N,08015.16779,E,1.56,187.10,231222,,,A,V*0E
+QGNSSRD: $GNRMC,065653.000,A,1257.78630,N,08015.16777,E,0.00,187.10,231222,,,A,V*03
+QGNSSRD: $GNRMC,065654.000,A,1257.78632,N,08015.16777,E,0.00,187.10,231222,,,A,V*06
+QGNSSRD: $GNRMC,065655.000,A,1257.78636,N,08015.16777,E,0.00,187.10,231222,,,A,V*03
+QGNSSRD: $GNRMC,065656.000,A,1257.78638,N,08015.16776,E,0.00,187.10,231222,,,A,V*0F
+QGNSSRD: $GNRMC,065657.000,A,1257.78639,N,08015.16775,E,0.00,187.10,231222,,,A,V*0C
+QGNSSRD: $GNRMC,065658.000,A,1257.78641,N,08015.16775,E,0.00,187.10,231222,,,A,V*0C
+QGNSSRD: $GNRMC,065659.000,A,1257.78641,N,08015.16775,E,0.00,187.10,231222,,,A,V*0D
+QGNSSRD: $GNRMC,065700.000,A,1257.78641,N,08015.16773,E,0.00,187.10,231222,,,A,V*06
+QGNSSRD: $GNRMC,065701.000,A,1257.78641,N,08015.16774,E,0.00,187.10,231222,,,A,V*00
+QGNSSRD: $GNRMC,065702.000,A,1257.78640,N,08015.16774,E,0.00,187.10,231222,,,A,V*02
+QGNSSRD: $GNRMC,065703.000,A,1257.78638,N,08015.16774,E,0.00,187.10,231222,,,A,V*0C